{
"type": "FeatureCollection",
"name": "luup_random_select",
"crs": { "type": "name", "properties": { "name": "urn:ogc:def:crs:OGC:1.3:CRS84" } },
"features": [
{ "type": "Feature", "properties": { "id": "903100882", "name": "プルデント室見" }, "geometry": { "type": "Point", "coordinates": [ 130.337564, 33.583563 ] } },
{ "type": "Feature", "properties": { "id": "9310501", "name": "モンテ・ローザ神松寺Ⅱ" }, "geometry": { "type": "Point", "coordinates": [ 130.373844, 33.555421 ] } },
{ "type": "Feature", "properties": { "id": "9310556", "name": "AND THE SOIL." }, "geometry": { "type": "Point", "coordinates": [ 130.409467, 33.578168 ] } },
{ "type": "Feature", "properties": { "id": "9310022", "name": "FUK COFFEE Parks" }, "geometry": { "type": "Point", "coordinates": [ 130.378856, 33.59153 ] } },
{ "type": "Feature", "properties": { "id": "9390003", "name": "市営狩口住宅4北西鉄塔付近" }, "geometry": { "type": "Point", "coordinates": [ 135.020633, 34.646745 ] } },
{ "type": "Feature", "properties": { "id": "9080052", "name": "ホテル・カサベラINN神戸" }, "geometry": { "type": "Point", "coordinates": [ 135.171382, 34.681713 ] } },
{ "type": "Feature", "properties": { "id": "9020262", "name": "Pi'ece Charmante Fukushima" }, "geometry": { "type": "Point", "coordinates": [ 135.4718358, 34.6973333 ] } },
{ "type": "Feature", "properties": { "id": "10403", "name": "アーバンカーサ同心" }, "geometry": { "type": "Point", "coordinates": [ 135.515325100000013, 34.7015273 ] } },
{ "type": "Feature", "properties": { "id": "10128", "name": "ルクレ堺筋本町レジデンス" }, "geometry": { "type": "Point", "coordinates": [ 135.507851, 34.681389 ] } },
{ "type": "Feature", "properties": { "id": "10115", "name": "グリーンアース" }, "geometry": { "type": "Point", "coordinates": [ 135.499172, 34.679819 ] } },
{ "type": "Feature", "properties": { "id": "9040102", "name": "プレサンス京都駅前千都" }, "geometry": { "type": "Point", "coordinates": [ 135.7611948, 34.9813483 ] } },
{ "type": "Feature", "properties": { "id": "9040518", "name": "MPI'S京都西院" }, "geometry": { "type": "Point", "coordinates": [ 135.7350597, 35.0054847 ] } },
{ "type": "Feature", "properties": { "id": "9040772", "name": "テラスコート深草" }, "geometry": { "type": "Point", "coordinates": [ 135.774422, 34.968947 ] } },
{ "type": "Feature", "properties": { "id": "9090501", "name": "ハチCAFE" }, "geometry": { "type": "Point", "coordinates": [ 136.877156, 35.165111 ] } },
{ "type": "Feature", "properties": { "id": "9090117", "name": "グレースガーデンプラザ" }, "geometry": { "type": "Point", "coordinates": [ 136.910376, 35.144059 ] } },
{ "type": "Feature", "properties": { "id": "900900746", "name": "プレディアスタイル白川公園" }, "geometry": { "type": "Point", "coordinates": [ 136.894919, 35.16286 ] } },
{ "type": "Feature", "properties": { "id": "9090164", "name": "栄5丁目" }, "geometry": { "type": "Point", "coordinates": [ 136.913319, 35.162915 ] } },
{ "type": "Feature", "properties": { "id": "900900640", "name": "プレサンス大曽根駅前ファースト" }, "geometry": { "type": "Point", "coordinates": [ 136.933234, 35.191584 ] } },
{ "type": "Feature", "properties": { "id": "900103311", "name": "パラカ駒沢第11" }, "geometry": { "type": "Point", "coordinates": [ 139.658112, 35.634566 ] } },
{ "type": "Feature", "properties": { "id": "9010131", "name": "宮前1丁目 第4ポート" }, "geometry": { "type": "Point", "coordinates": [ 139.609922, 35.690471 ] } },
{ "type": "Feature", "properties": { "id": "2750", "name": "成田東5丁目" }, "geometry": { "type": "Point", "coordinates": [ 139.630580400000014, 35.7005946 ] } },
{ "type": "Feature", "properties": { "id": "9011848", "name": "カメリアマンション" }, "geometry": { "type": "Point", "coordinates": [ 139.597788, 35.722406 ] } },
{ "type": "Feature", "properties": { "id": "9010217", "name": "ステージファースト新中野" }, "geometry": { "type": "Point", "coordinates": [ 139.6748412, 35.6978444 ] } },
{ "type": "Feature", "properties": { "id": "900104628", "name": "東中野5丁目" }, "geometry": { "type": "Point", "coordinates": [ 139.691732, 35.710352 ] } },
{ "type": "Feature", "properties": { "id": "9011148", "name": "TOKYO β 野方17" }, "geometry": { "type": "Point", "coordinates": [ 139.656877, 35.71514 ] } },
{ "type": "Feature", "properties": { "id": "9030010", "name": "石川町5丁目" }, "geometry": { "type": "Point", "coordinates": [ 139.638637100000011, 35.4367175 ] } },
{ "type": "Feature", "properties": { "id": "900104733", "name": "シャトーエイ" }, "geometry": { "type": "Point", "coordinates": [ 139.688793, 35.701495 ] } },
{ "type": "Feature", "properties": { "id": "1244", "name": "小野田駐車場" }, "geometry": { "type": "Point", "coordinates": [ 139.6813871, 35.7165529 ] } },
{ "type": "Feature", "properties": { "id": "9010600", "name": "ときわ台駅南口自転車駐車場" }, "geometry": { "type": "Point", "coordinates": [ 139.687314, 35.758929 ] } },
{ "type": "Feature", "properties": { "id": "9012720", "name": "ベアフルートプラス1" }, "geometry": { "type": "Point", "coordinates": [ 139.710011, 35.761118 ] } },
{ "type": "Feature", "properties": { "id": "1999", "name": "クロスワン" }, "geometry": { "type": "Point", "coordinates": [ 139.701042699999988, 35.7387183 ] } },
{ "type": "Feature", "properties": { "id": "9010391", "name": "フィレンツェ南大井" }, "geometry": { "type": "Point", "coordinates": [ 139.735731, 35.599505 ] } },
{ "type": "Feature", "properties": { "id": "2220", "name": "旗の台5丁目" }, "geometry": { "type": "Point", "coordinates": [ 139.7009062, 35.6017285 ] } },
{ "type": "Feature", "properties": { "id": "9010196", "name": "田嶋ビル" }, "geometry": { "type": "Point", "coordinates": [ 139.752253, 35.647447 ] } },
{ "type": "Feature", "properties": { "id": "1456", "name": "コンシェリア後楽園HILLTOP SQUARE" }, "geometry": { "type": "Point", "coordinates": [ 139.7429227, 35.7131594 ] } },
{ "type": "Feature", "properties": { "id": "900103655", "name": "雷門2丁目" }, "geometry": { "type": "Point", "coordinates": [ 139.797749, 35.710011 ] } },
{ "type": "Feature", "properties": { "id": "900104501", "name": "レスプリヴァルール" }, "geometry": { "type": "Point", "coordinates": [ 139.767801, 35.694632 ] } },
{ "type": "Feature", "properties": { "id": "702", "name": "フィオーレ月島" }, "geometry": { "type": "Point", "coordinates": [ 139.786159166666664, 35.666418611111112 ] } },
{ "type": "Feature", "properties": { "id": "9012221", "name": "パークウェル銀座東" }, "geometry": { "type": "Point", "coordinates": [ 139.77473, 35.669086 ] } },
{ "type": "Feature", "properties": { "id": "9012333", "name": "両国ガレージ" }, "geometry": { "type": "Point", "coordinates": [ 139.791426, 35.693932 ] } },
{ "type": "Feature", "properties": { "id": "9011659", "name": "ブランシエスタ本所吾妻橋" }, "geometry": { "type": "Point", "coordinates": [ 139.80212, 35.709062 ] } },
{ "type": "Feature", "properties": { "id": "973", "name": "BON東京浅草" }, "geometry": { "type": "Point", "coordinates": [ 139.799226, 35.708039 ] } },
{ "type": "Feature", "properties": { "id": "9010820", "name": "ハーモニーレジデンス住吉" }, "geometry": { "type": "Point", "coordinates": [ 139.813193, 35.68515 ] } },
{ "type": "Feature", "properties": { "id": "9011753", "name": "テラス森下" }, "geometry": { "type": "Point", "coordinates": [ 139.802682, 35.688373 ] } },
{ "type": "Feature", "properties": { "id": "9010112", "name": "メインステージ錦糸町Ⅱ" }, "geometry": { "type": "Point", "coordinates": [ 139.820878, 35.693742 ] } },
{ "type": "Feature", "properties": { "id": "9050205", "name": "仙台ビジネスホテル駅前" }, "geometry": { "type": "Point", "coordinates": [ 140.879506, 38.256886 ] } },
{ "type": "Feature", "properties": { "id": "9050015", "name": "ホットハウス定禅寺第4パーキング" }, "geometry": { "type": "Point", "coordinates": [ 140.864497, 38.266149 ] } },
{ "type": "Feature", "properties": { "id": "9050030", "name": "丘のホテル" }, "geometry": { "type": "Point", "coordinates": [ 140.893472, 38.261451 ] } },
{ "type": "Feature", "properties": { "id": "9310722", "name": "イールドコート室見藤崎" }, "geometry": { "type": "Point", "coordinates": [ 130.343986, 33.580576 ] } },
{ "type": "Feature", "properties": { "id": "903100894", "name": "ホテルリブマックス博多駅前" }, "geometry": { "type": "Point", "coordinates": [ 130.414437, 33.590237 ] } },
{ "type": "Feature", "properties": { "id": "9310335", "name": "グラシアス箱崎宮前" }, "geometry": { "type": "Point", "coordinates": [ 130.419025, 33.619165 ] } },
{ "type": "Feature", "properties": { "id": "9310717", "name": "八田2丁目 駐車場 第2ポート" }, "geometry": { "type": "Point", "coordinates": [ 130.460078, 33.637971 ] } },
{ "type": "Feature", "properties": { "id": "10069", "name": "プレシオーソ梅田" }, "geometry": { "type": "Point", "coordinates": [ 135.501217, 34.712948 ] } },
{ "type": "Feature", "properties": { "id": "10517", "name": "ジオナ松屋町" }, "geometry": { "type": "Point", "coordinates": [ 135.511957599999988, 34.6744341 ] } },
{ "type": "Feature", "properties": { "id": "9040749", "name": "フラッティ吉野町B" }, "geometry": { "type": "Point", "coordinates": [ 135.749922, 35.021851 ] } },
{ "type": "Feature", "properties": { "id": "9040116", "name": "ファミリーマート 中立売智恵光院店" }, "geometry": { "type": "Point", "coordinates": [ 135.7468859, 35.0252252 ] } },
{ "type": "Feature", "properties": { "id": "9040340", "name": "SBS京橋ツーソン 店舗南側" }, "geometry": { "type": "Point", "coordinates": [ 135.75079, 34.93577 ] } },
{ "type": "Feature", "properties": { "id": "9040697", "name": "三条白川マンション" }, "geometry": { "type": "Point", "coordinates": [ 135.779747, 35.009 ] } },
{ "type": "Feature", "properties": { "id": "9410004", "name": "津市役所（東側駐輪場）" }, "geometry": { "type": "Point", "coordinates": [ 136.5056382, 34.71772887 ] } },
{ "type": "Feature", "properties": { "id": "900900631", "name": "八木兵伝馬町ビル" }, "geometry": { "type": "Point", "coordinates": [ 136.901104, 35.172208 ] } },
{ "type": "Feature", "properties": { "id": "900900671", "name": "三井のリパーク 今池第22" }, "geometry": { "type": "Point", "coordinates": [ 136.932557, 35.167585 ] } },
{ "type": "Feature", "properties": { "id": "900103756", "name": "Grand Soleil Eighty" }, "geometry": { "type": "Point", "coordinates": [ 139.618291, 35.635017 ] } },
{ "type": "Feature", "properties": { "id": "900104055", "name": "ベルメゾン千歳台" }, "geometry": { "type": "Point", "coordinates": [ 139.61642, 35.64847 ] } },
{ "type": "Feature", "properties": { "id": "2615", "name": "松原3丁目 第2ポート" }, "geometry": { "type": "Point", "coordinates": [ 139.644531699999987, 35.6674516 ] } },
{ "type": "Feature", "properties": { "id": "9010889", "name": "ラ・パルフェ・ド・プリモ" }, "geometry": { "type": "Point", "coordinates": [ 139.61173, 35.696206 ] } },
{ "type": "Feature", "properties": { "id": "9011943", "name": "高円寺南2丁目 第5ポート" }, "geometry": { "type": "Point", "coordinates": [ 139.650044, 35.701457 ] } },
{ "type": "Feature", "properties": { "id": "1841", "name": "高円寺南3丁目" }, "geometry": { "type": "Point", "coordinates": [ 139.64631, 35.70368 ] } },
{ "type": "Feature", "properties": { "id": "9012298", "name": "ローソン練馬東大泉五丁目" }, "geometry": { "type": "Point", "coordinates": [ 139.5870679, 35.7425567 ] } },
{ "type": "Feature", "properties": { "id": "900104723", "name": "カサーディア練馬" }, "geometry": { "type": "Point", "coordinates": [ 139.647378, 35.740828 ] } },
{ "type": "Feature", "properties": { "id": "9010681", "name": "メゾン新中野" }, "geometry": { "type": "Point", "coordinates": [ 139.669481, 35.696991 ] } },
{ "type": "Feature", "properties": { "id": "20058", "name": "メゾンドクレイン" }, "geometry": { "type": "Point", "coordinates": [ 139.628673, 35.4495715 ] } },
{ "type": "Feature", "properties": { "id": "900104548", "name": "プラザ・リー新宿" }, "geometry": { "type": "Point", "coordinates": [ 139.68877, 35.703649 ] } },
{ "type": "Feature", "properties": { "id": "1924", "name": "パレステュディオ飯田橋" }, "geometry": { "type": "Point", "coordinates": [ 139.7430608, 35.7061945 ] } },
{ "type": "Feature", "properties": { "id": "900104749", "name": "藤和参宮橋コープⅡ" }, "geometry": { "type": "Point", "coordinates": [ 139.691387, 35.67528 ] } },
{ "type": "Feature", "properties": { "id": "9010546", "name": "スプリングパーム代々木" }, "geometry": { "type": "Point", "coordinates": [ 139.695457, 35.683379 ] } },
{ "type": "Feature", "properties": { "id": "794", "name": "代々木3丁目 第2ポート" }, "geometry": { "type": "Point", "coordinates": [ 139.696117, 35.68177 ] } },
{ "type": "Feature", "properties": { "id": "436", "name": "PIPE" }, "geometry": { "type": "Point", "coordinates": [ 139.719763, 35.64914 ] } },
{ "type": "Feature", "properties": { "id": "900104272", "name": "西六郷駐車場" }, "geometry": { "type": "Point", "coordinates": [ 139.702579, 35.543588 ] } },
{ "type": "Feature", "properties": { "id": "9010884", "name": "Palm" }, "geometry": { "type": "Point", "coordinates": [ 139.6437879, 35.7720169 ] } },
{ "type": "Feature", "properties": { "id": "900103249", "name": "ベルファース志村坂上アリコルージュ" }, "geometry": { "type": "Point", "coordinates": [ 139.698823, 35.77331 ] } },
{ "type": "Feature", "properties": { "id": "900104832", "name": "パレ・ホームズ飛鳥山 第2ポート" }, "geometry": { "type": "Point", "coordinates": [ 139.735413, 35.749741 ] } },
{ "type": "Feature", "properties": { "id": "1657", "name": "株式会社ユアス 切手印紙類販売所 ポスト横" }, "geometry": { "type": "Point", "coordinates": [ 139.731057, 35.622937 ] } },
{ "type": "Feature", "properties": { "id": "9010931", "name": "JMFビル広尾01" }, "geometry": { "type": "Point", "coordinates": [ 139.72277, 35.65499 ] } },
{ "type": "Feature", "properties": { "id": "9010092", "name": "白金台FLATS" }, "geometry": { "type": "Point", "coordinates": [ 139.728061, 35.639737 ] } },
{ "type": "Feature", "properties": { "id": "1812", "name": "ハーモニーレジデンス西麻布" }, "geometry": { "type": "Point", "coordinates": [ 139.7236883, 35.6602056 ] } },
{ "type": "Feature", "properties": { "id": "9010766", "name": "パークホームズ浜松町 第2ポート" }, "geometry": { "type": "Point", "coordinates": [ 139.762013700000011, 35.6548774 ] } },
{ "type": "Feature", "properties": { "id": "1557", "name": "グレースKRアサクサ" }, "geometry": { "type": "Point", "coordinates": [ 139.799255100000011, 35.7230243 ] } },
{ "type": "Feature", "properties": { "id": "9011664", "name": "靖国九段南ビル" }, "geometry": { "type": "Point", "coordinates": [ 139.745301, 35.692718 ] } },
{ "type": "Feature", "properties": { "id": "900104330", "name": "DIPS北千住" }, "geometry": { "type": "Point", "coordinates": [ 139.797415, 35.746871 ] } },
{ "type": "Feature", "properties": { "id": "9012321", "name": "立花1丁目" }, "geometry": { "type": "Point", "coordinates": [ 139.82685810000001, 35.7067272 ] } },
{ "type": "Feature", "properties": { "id": "1307", "name": "越中島3丁目" }, "geometry": { "type": "Point", "coordinates": [ 139.795803799999987, 35.6646959 ] } },
{ "type": "Feature", "properties": { "id": "1407", "name": "ルミレイス豊洲 駐車場側駐輪場奥" }, "geometry": { "type": "Point", "coordinates": [ 139.796862299999987, 35.6527263 ] } },
{ "type": "Feature", "properties": { "id": "1383", "name": "ルクレ森下レジデンス" }, "geometry": { "type": "Point", "coordinates": [ 139.793704600000012, 35.6881318 ] } },
{ "type": "Feature", "properties": { "id": "9010475", "name": "東陽町ぐりんたす 第2ポート" }, "geometry": { "type": "Point", "coordinates": [ 139.819758900000011, 35.6700948 ] } },
{ "type": "Feature", "properties": { "id": "50136", "name": "スカイブリッジ遊歩道" }, "geometry": { "type": "Point", "coordinates": [ 139.903349, 36.5552956 ] } },
{ "type": "Feature", "properties": { "id": "900500401", "name": "学生会館 Uni E'meal 仙台川内" }, "geometry": { "type": "Point", "coordinates": [ 140.839423, 38.260992 ] } },
{ "type": "Feature", "properties": { "id": "9050045", "name": "レジデンスちどりや" }, "geometry": { "type": "Point", "coordinates": [ 140.861858, 38.274791 ] } },
{ "type": "Feature", "properties": { "id": "9050181", "name": "ルアナエールレジデンス宮町" }, "geometry": { "type": "Point", "coordinates": [ 140.884438, 38.266706 ] } },
{ "type": "Feature", "properties": { "id": "9050151", "name": "宮町1丁目" }, "geometry": { "type": "Point", "coordinates": [ 140.883492, 38.268618 ] } },
{ "type": "Feature", "properties": { "id": "900500517", "name": "小山産業株式会社" }, "geometry": { "type": "Point", "coordinates": [ 140.92199, 38.253629 ] } }
]
}
